[
  {
    "id": "poi-azteca",
    "name": "Estadio Azteca",
    "category": "stadium",
    "city": "Ciudad de México",
    "latitude": 19.3029,
    "longitude": -99.1505,
    "priceRange": null,
    "hours": "10:00-18:00",
    "tags": ["fútbol","sede","partidos"]
  },
  {
    "id": "poi-akron",
    "name": "Estadio Akron",
    "category": "stadium",
    "city": "Guadalajara",
    "latitude": 20.6815,
    "longitude": -103.4625,
    "priceRange": null,
    "hours": "10:00-18:00",
    "tags": ["fútbol","chivas","estadio"]
  },
  {
    "id": "poi-bbva",
    "name": "Estadio BBVA",
    "category": "stadium",
    "city": "Monterrey",
    "latitude": 25.6696,
    "longitude": -100.2385,
    "priceRange": null,
    "hours": "10:00-18:00",
    "tags": ["fútbol","rayados","estadio"]
  },
  {
    "id": "poi-templo-mayor",
    "name": "Templo Mayor",
    "category": "landmark",
    "city": "Ciudad de México",
    "latitude": 19.4351,
    "longitude": -99.1310,
    "priceRange": "$",
    "hours": "09:00-17:00",
    "tags": ["centro histórico","arqueología","museo"]
  },
  {
    "id": "poi-chapultepec",
    "name": "Castillo de Chapultepec",
    "category": "landmark",
    "city": "Ciudad de México",
    "latitude": 19.4206,
    "longitude": -99.1818,
    "priceRange": "$",
    "hours": "09:00-17:00",
    "tags": ["historia","vistas","museo"]
  },
  {
    "id": "poi-teotihuacan",
    "name": "Teotihuacán",
    "category": "landmark",
    "city": "Estado de México",
    "latitude": 19.6925,
    "longitude": -98.8435,
    "priceRange": "$$",
    "hours": "09:00-17:00",
    "tags": ["pirámides","arqueología","zonas arqueológicas"]
  },
  {
    "id": "poi-museo-antropologia",
    "name": "Museo Nacional de Antropología",
    "category": "museum",
    "city": "Ciudad de México",
    "latitude": 19.4260,
    "longitude": -99.1860,
    "priceRange": "$$",
    "hours": "09:00-18:00",
    "tags": ["cultura","historia","imperdible"]
  },
  {
    "id": "poi-bellas-artes",
    "name": "Palacio de Bellas Artes",
    "category": "museum",
    "city": "Ciudad de México",
    "latitude": 19.4350,
    "longitude": -99.1412,
    "priceRange": "$$",
    "hours": "10:00-17:00",
    "tags": ["arte","arquitectura","cultura"]
  },
  {
    "id": "poi-frida-kahlo",
    "name": "Museo Frida Kahlo",
    "category": "museum",
    "city": "Ciudad de México",
    "latitude": 19.3550,
    "longitude": -99.1620,
    "priceRange": "$$$",
    "hours": "10:00-17:30",
    "tags": ["arte","coyoacán","frida kahlo"]
  },
  {
    "id": "poi-tacos",
    "name": "Taquería El Ídolo",
    "category": "food",
    "city": "Ciudad de México",
    "latitude": 19.4270,
    "longitude": -99.1670,
    "priceRange": "$",
    "hours": "13:00-01:00",
    "tags": ["tacos","rápido","barato"]
  },
  {
    "id": "poi-pujol",
    "name": "Pujol",
    "category": "food",
    "city": "Ciudad de México",
    "latitude": 19.4255,
    "longitude": -99.1945,
    "priceRange": "$$$$",
    "hours": "13:00-23:00",
    "tags": ["gourmet","mole","alta cocina"]
  },
  {
    "id": "poi-contramar",
    "name": "Contramar",
    "category": "food",
    "city": "Ciudad de México",
    "latitude": 19.4190,
    "longitude": -99.1665,
    "priceRange": "$$$",
    "hours": "12:00-18:00",
    "tags": ["mariscos","atún","pescado"]
  },
  {
    "id": "poi-bar-mundial",
    "name": "La Mundialista",
    "category": "bar",
    "city": "Ciudad de México",
    "latitude": 19.4205,
    "longitude": -99.1630,
    "priceRange": "$$",
    "hours": "17:00-02:00",
    "tags": ["deportes","pantallas","cerveza"]
  },
  {
    "id": "poi-limantour",
    "name": "Licorería Limantour",
    "category": "bar",
    "city": "Ciudad de México",
    "latitude": 19.4235,
    "longitude": -99.1635,
    "priceRange": "$$$",
    "hours": "18:00-02:00",
    "tags": ["cocteles","top","mixología"]
  },
  {
    "id": "poi-parker-lenox",
    "name": "Parker & Lenox",
    "category": "bar",
    "city": "Ciudad de México",
    "latitude": 19.4340,
    "longitude": -99.1405,
    "priceRange": "$$",
    "hours": "19:00-02:00",
    "tags": ["jazz","elegante","música en vivo"]
  },
  {
    "id": "poi-hotel-reforma",
    "name": "Hotel Reforma",
    "category": "hotel",
    "city": "Ciudad de México",
    "latitude": 19.4320,
    "longitude": -99.1520,
    "priceRange": "$$$",
    "hours": "24h",
    "tags": ["céntrico","lujo","reforma"]
  },
  {
    "id": "poi-condesa-df",
    "name": "Condesa DF",
    "category": "hotel",
    "city": "Ciudad de México",
    "latitude": 19.4135,
    "longitude": -99.1670,
    "priceRange": "$$$$",
    "hours": "24h",
    "tags": ["boutique","design","condesa"]
  },
  {
    "id": "poi-cambio-reforma",
    "name": "Casa de Cambio Reforma",
    "category": "exchange",
    "city": "Ciudad de México",
    "latitude": 19.4280,
    "longitude": -99.1675,
    "priceRange": null,
    "hours": "09:00-19:00",
    "tags": ["dólares","euros","divisas"]
  },
  {
    "id": "poi-cambio-centro",
    "name": "Money Exchange Centro",
    "category": "exchange",
    "city": "Ciudad de México",
    "latitude": 19.4330,
    "longitude": -99.1330,
    "priceRange": null,
    "hours": "10:00-18:00",
    "tags": ["mejor tasa","centro","cambio"]
  },
    {
      "id": "poi-xochimilco",
      "name": "Xochimilco",
      "category": "landmark",
      "city": "Ciudad de México",
      "latitude": 19.2706,
      "longitude": -99.1046,
      "priceRange": "$$",
      "hours": "09:00-18:00",
      "tags": ["trajineras","canales","unesco"]
    },
    {
      "id": "poi-basilica-guadalupe",
      "name": "Basílica de Guadalupe",
      "category": "landmark",
      "city": "Ciudad de México",
      "latitude": 19.4848,
      "longitude": -99.1175,
      "priceRange": "$",
      "hours": "06:00-20:00",
      "tags": ["religioso","virgen","peregrinación"]
    },
    {
      "id": "poi-coyoacan",
      "name": "Coyoacán",
      "category": "landmark",
      "city": "Ciudad de México",
      "latitude": 19.3491,
      "longitude": -99.1613,
      "priceRange": "$$",
      "hours": "24h",
      "tags": ["bohemio","plaza","cultura"]
    },
    {
      "id": "poi-angel-independencia",
      "name": "Ángel de la Independencia",
      "category": "landmark",
      "city": "Ciudad de México",
      "latitude": 19.4270,
      "longitude": -99.1676,
      "priceRange": null,
      "hours": "24h",
      "tags": ["monumento","reforma","símbolo"]
    },
    {
      "id": "poi-palacio-bellas-artes",
      "name": "Palacio de Bellas Artes",
      "category": "landmark",
      "city": "Ciudad de México",
      "latitude": 19.4352,
      "longitude": -99.1413,
      "priceRange": "$$",
      "hours": "10:00-17:00",
      "tags": ["arquitectura","arte","murales"]
    },
    {
      "id": "poi-museo-tamayo",
      "name": "Museo Tamayo",
      "category": "museum",
      "city": "Ciudad de México",
      "latitude": 19.4263,
      "longitude": -99.1814,
      "priceRange": "$$",
      "hours": "10:00-18:00",
      "tags": ["arte contemporáneo","chapultepec","tamayo"]
    },
    {
      "id": "poi-museo-soumaya",
      "name": "Museo Soumaya",
      "category": "museum",
      "city": "Ciudad de México",
      "latitude": 19.4414,
      "longitude": -99.2055,
      "priceRange": "$",
      "hours": "10:30-18:30",
      "tags": ["gratis","arquitectura","esculturas"]
    },
    {
      "id": "poi-museo-jumex",
      "name": "Museo Jumex",
      "category": "museum",
      "city": "Ciudad de México",
      "latitude": 19.4408,
      "longitude": -99.2050,
      "priceRange": "$$",
      "hours": "10:00-17:00",
      "tags": ["arte contemporáneo","exposiciones","moderno"]
    },
    {
      "id": "poi-museo-memoria-tolerancia",
      "name": "Museo Memoria y Tolerancia",
      "category": "museum",
      "city": "Ciudad de México",
      "latitude": 19.4338,
      "longitude": -99.1405,
      "priceRange": "$$",
      "hours": "10:00-18:00",
      "tags": ["historia","educación","derechos humanos"]
    },
    {
      "id": "poi-museo-casa-frida-kahlo",
      "name": "Museo Casa de Frida Kahlo",
      "category": "museum",
      "city": "Ciudad de México",
      "latitude": 19.3551,
      "longitude": -99.1621,
      "priceRange": "$$$",
      "hours": "10:00-17:30",
      "tags": ["frida kahlo","casa azul","coyoacán"]
    },
    {
      "id": "poi-restaurante-quintonil",
      "name": "Quintonil",
      "category": "food",
      "city": "Ciudad de México",
      "latitude": 19.4335,
      "longitude": -99.1990,
      "priceRange": "$$$$",
      "hours": "13:00-23:00",
      "tags": ["alta cocina","gourmet","mexicano contemporáneo"]
    },
    {
      "id": "poi-el-morral",
      "name": "El Morral",
      "category": "food",
      "city": "Ciudad de México",
      "latitude": 19.4285,
      "longitude": -99.1590,
      "priceRange": "$$",
      "hours": "08:00-22:00",
      "tags": ["comida corrida","tradicional","económico"]
    },
    {
      "id": "poi-los-cocuyos",
      "name": "Los Cocuyos",
      "category": "food",
      "city": "Ciudad de México",
      "latitude": 19.4290,
      "longitude": -99.1400,
      "priceRange": "$",
      "hours": "12:00-04:00",
      "tags": ["tacos","suadero","centro"]
    },
    {
      "id": "poi-el-cardenal",
      "name": "El Cardenal",
      "category": "food",
      "city": "Ciudad de México",
      "latitude": 19.4340,
      "longitude": -99.1390,
      "priceRange": "$$$",
      "hours": "08:00-18:00",
      "tags": ["desayuno","tradicional","centro histórico"]
    },
    {
      "id": "poi-la-docena",
      "name": "La Docena",
      "category": "food",
      "city": "Ciudad de México",
      "latitude": 19.4210,
      "longitude": -99.1645,
      "priceRange": "$$$",
      "hours": "13:00-23:00",
      "tags": ["mariscos","ostiones","romántico"]
    },
    {
      "id": "poi-bar-maya",
      "name": "Bar Maya",
      "category": "bar",
      "city": "Ciudad de México",
      "latitude": 19.4240,
      "longitude": -99.1650,
      "priceRange": "$$$",
      "hours": "18:00-02:00",
      "tags": ["cocteles","mezcal","ambiente"]
    },
    {
      "id": "poi-hanky-panky",
      "name": "Hanky Panky",
      "category": "bar",
      "city": "Ciudad de México",
      "latitude": 19.4265,
      "longitude": -99.1680,
      "priceRange": "$$$",
      "hours": "18:00-02:00",
      "tags": ["speakeasy","cocteles","exclusivo"]
    },
    {
      "id": "poi-baltra",
      "name": "Baltra Bar",
      "category": "bar",
      "city": "Ciudad de México",
      "latitude": 19.4120,
      "longitude": -99.1710,
      "priceRange": "$$",
      "hours": "18:00-02:00",
      "tags": ["cocteles","condesa","darwin"]
    },
    {
      "id": "poi-cicatriz",
      "name": "Cicatriz",
      "category": "bar",
      "city": "Ciudad de México",
      "latitude": 19.4280,
      "longitude": -99.1615,
      "priceRange": "$$",
      "hours": "12:00-02:00",
      "tags": ["vino","tapas","hipster"]
    },
    {
      "id": "poi-fiebre-de-malta",
      "name": "Fiebre de Malta",
      "category": "bar",
      "city": "Ciudad de México",
      "latitude": 19.4195,
      "longitude": -99.1625,
      "priceRange": "$$",
      "hours": "13:00-02:00",
      "tags": ["cerveza","deportes","informal"]
    },
    {
      "id": "poi-hotel-four-seasons",
      "name": "Four Seasons México",
      "category": "hotel",
      "city": "Ciudad de México",
      "latitude": 19.4260,
      "longitude": -99.1730,
      "priceRange": "$$$$",
      "hours": "24h",
      "tags": ["lujo","spa","reforma"]
    },
    {
      "id": "poi-hotel-st-regis",
      "name": "St. Regis México",
      "category": "hotel",
      "city": "Ciudad de México",
      "latitude": 19.4245,
      "longitude": -99.1750,
      "priceRange": "$$$$",
      "hours": "24h",
      "tags": ["5 estrellas","lujo","butler"]
    },
    {
      "id": "poi-hotel-gran-hotel",
      "name": "Gran Hotel Ciudad de México",
      "category": "hotel",
      "city": "Ciudad de México",
      "latitude": 19.4345,
      "longitude": -99.1335,
      "priceRange": "$$$",
      "hours": "24h",
      "tags": ["histórico","vitrales","centro"]
    },
    {
      "id": "poi-hotel-hilton",
      "name": "Hilton México Reforma",
      "category": "hotel",
      "city": "Ciudad de México",
      "latitude": 19.4330,
      "longitude": -99.1510,
      "priceRange": "$$$",
      "hours": "24h",
      "tags": ["negocios","reforma","vistas"]
    },
    {
      "id": "poi-hotel-habita",
      "name": "Hotel Habita",
      "category": "hotel",
      "city": "Ciudad de México",
      "latitude": 19.4240,
      "longitude": -99.1995,
      "priceRange": "$$$$",
      "hours": "24h",
      "tags": ["boutique","design","polanco"]
    },
    {
      "id": "poi-cambio-condesa",
      "name": "Casa de Cambio Condesa",
      "category": "exchange",
      "city": "Ciudad de México",
      "latitude": 19.4115,
      "longitude": -99.1725,
      "priceRange": null,
      "hours": "09:00-20:00",
      "tags": ["condesa","tasa competitiva","divisas"]
    },
    {
      "id": "poi-cambio-polanco",
      "name": "Intercam Polanco",
      "category": "exchange",
      "city": "Ciudad de México",
      "latitude": 19.4335,
      "longitude": -99.2020,
      "priceRange": null,
      "hours": "09:00-19:00",
      "tags": ["polanco","confiable","dólares"]
    },
    {
      "id": "poi-cambio-aeropuerto",
      "name": "Cambio Aeropuerto T1",
      "category": "exchange",
      "city": "Ciudad de México",
      "latitude": 19.4363,
      "longitude": -99.0721,
      "priceRange": null,
      "hours": "24h",
      "tags": ["aeropuerto","urgente","divisas"]
    },
    {
      "id": "poi-cambio-zona-rosa",
      "name": "Money Exchange Zona Rosa",
      "category": "exchange",
      "city": "Ciudad de México",
      "latitude": 19.4265,
      "longitude": -99.1650,
      "priceRange": null,
      "hours": "10:00-18:00",
      "tags": ["zona rosa","céntrico","euro"]
    },
    {
      "id": "poi-cambio-santa-fe",
      "name": "Casa de Cambio Santa Fe",
      "category": "exchange",
      "city": "Ciudad de México",
      "latitude": 19.3590,
      "longitude": -99.2795,
      "priceRange": null,
      "hours": "09:00-19:00",
      "tags": ["santa fe","oficinas","divisas"]
    }
  ]
